{"68700":{"cp":"68700","estado":"Oaxaca","municipio":"Natividad","colonias":["Natividad","San Vicente","Unidad Deportiva","El Colorado","Agua Blanca"],"coords":{"lat":17.29675865,"lon":-96.43283844}},"68704":{"cp":"68704","estado":"Oaxaca","municipio":"San Juan Quiotepec","colonias":["San Juan Quiotepec"],"coords":{"lat":17.59892654,"lon":-96.58512878}},"68706":{"cp":"68706","estado":"Oaxaca","municipio":"San Juan Quiotepec","colonias":["Maninaltepec","Santa María Nieves","Santa María Totomoxtla"],"coords":{"lat":17.61216736,"lon":-96.55960083}},"68707":{"cp":"68707","estado":"Oaxaca","municipio":"San Pedro Yólox","colonias":["San Pedro Yolox"],"coords":{"lat":17.58838272,"lon":-96.55307007}},"68708":{"cp":"68708","estado":"Oaxaca","municipio":"San Pedro Yólox","colonias":["San Martín Buenavista","Rosario Temextitlán","San Francisco la Reforma"],"coords":{"lat":17.64139366,"lon":-96.57289886}},"68710":{"cp":"68710","estado":"Oaxaca","municipio":"Santiago Comaltepec","colonias":["Santiago Comaltepec"],"coords":{"lat":17.55926895,"lon":-96.55751038}},"68711":{"cp":"68711","estado":"Oaxaca","municipio":"Santiago Comaltepec","colonias":["La Esperanza"],"coords":{"lat":17.63505745,"lon":-96.34104156}},"68712":{"cp":"68712","estado":"Oaxaca","municipio":"Santiago Comaltepec","colonias":["Soledad Tectitlán"],"coords":{"lat":17.58390617,"lon":-96.57050323}},"68714":{"cp":"68714","estado":"Oaxaca","municipio":"Santiago Comaltepec","colonias":["San Martín Soloyapan"],"coords":{"lat":17.56688881,"lon":-96.54843903}},"68715":{"cp":"68715","estado":"Oaxaca","municipio":"Abejones","colonias":["Abejones"],"coords":{"lat":17.42551613,"lon":-96.59749603}},"68720":{"cp":"68720","estado":"Oaxaca","municipio":"San Pablo Macuiltianguis","colonias":["San Pablo Macuiltianguis"],"coords":{"lat":17.53536224,"lon":-96.55284119}},"68722":{"cp":"68722","estado":"Oaxaca","municipio":"San Pablo Macuiltianguis","colonias":["San Juan Luvina"],"coords":{"lat":17.50436974,"lon":-96.55079651}},"68725":{"cp":"68725","estado":"Oaxaca","municipio":"Ixtlán de Juárez","colonias":["Ixtlán de Juárez","Santa María Yahuiche","La Asunción","La Soledad","San Pedro","San Francisco"],"coords":{"lat":17.32991982,"lon":-96.48609161}},"68726":{"cp":"68726","estado":"Oaxaca","municipio":"Ixtlán de Juárez","colonias":["San Gaspar Yagalaxi","La Josefina","La Palma"],"coords":{"lat":17.65682793,"lon":-96.14170074}},"68727":{"cp":"68727","estado":"Oaxaca","municipio":"Ixtlán de Juárez","colonias":["Santo Domingo Cacalotepec","San Juan Yagila","Santa Cruz Yagavila","Santa María Zoogachi","Santiago Teotlaxco"],"coords":{"lat":17.39521599,"lon":-96.32540131}},"68728":{"cp":"68728","estado":"Oaxaca","municipio":"Ixtlán de Juárez","colonias":["La Luz","San Miguel Tiltepec","Santa María Josaa"],"coords":{"lat":17.52317238,"lon":-96.38359833}},"68730":{"cp":"68730","estado":"Oaxaca","municipio":"San Juan Atepec","colonias":["San Juan Atepec"],"coords":{"lat":17.42862129,"lon":-96.54341125}},"68734":{"cp":"68734","estado":"Oaxaca","municipio":"San Pedro Yaneri","colonias":["San Pedro Yaneri"],"coords":{"lat":17.42069435,"lon":-96.3556366}},"68735":{"cp":"68735","estado":"Oaxaca","municipio":"San Pedro Yaneri","colonias":["San Juan Tepanzacolco"],"coords":{"lat":17.39884377,"lon":-96.37960052}},"68737":{"cp":"68737","estado":"Oaxaca","municipio":"San Miguel Aloápam","colonias":["San Miguel Aloapan","San Isidro Aloapam"],"coords":{"lat":17.40886688,"lon":-96.6920166}},"68740":{"cp":"68740","estado":"Oaxaca","municipio":"Teococuilco de Marcos Pérez","colonias":["Teococuilco de Marcos Pérez"],"coords":{"lat":17.35054016,"lon":-96.61652374}},"68745":{"cp":"68745","estado":"Oaxaca","municipio":"Santa Ana Yareni","colonias":["Santa Ana Yareni"],"coords":{"lat":17.39250755,"lon":-96.60811615}},"68748":{"cp":"68748","estado":"Oaxaca","municipio":"San Juan Evangelista Analco","colonias":["San Juan Evangelista Analco"],"coords":{"lat":17.40701103,"lon":-96.5402832}},"68750":{"cp":"68750","estado":"Oaxaca","municipio":"Santa María Jaltianguis","colonias":["Santa María Jaltianguis"],"coords":{"lat":17.3624897,"lon":-96.52802277}},"68754":{"cp":"68754","estado":"Oaxaca","municipio":"San Miguel del Río","colonias":["San Miguel del Río"],"coords":{"lat":17.3204689,"lon":-96.56939697}},"68757":{"cp":"68757","estado":"Oaxaca","municipio":"San Juan Chicomezúchil","colonias":["San Juan Chicomezúchil"],"coords":{"lat":17.30703735,"lon":-96.52416992}},"68760":{"cp":"68760","estado":"Oaxaca","municipio":"Capulálpam de Méndez","colonias":["Capulálpam de Méndez"],"coords":{"lat":17.3041935,"lon":-96.44405365}},"68764":{"cp":"68764","estado":"Oaxaca","municipio":"Nuevo Zoquiápam","colonias":["Nuevo Zoquiápam"],"coords":{"lat":17.28752899,"lon":-96.62122345}},"68765":{"cp":"68765","estado":"Oaxaca","municipio":"Nuevo Zoquiápam","colonias":["San Matias Zoquiapan"],"coords":{"lat":17.29280472,"lon":-96.61933136}},"68767":{"cp":"68767","estado":"Oaxaca","municipio":"Santiago Xiacuí","colonias":["San Andrés Yatuni","Santiago Xiacui"],"coords":{"lat":17.29253197,"lon":-96.43776703}},"68768":{"cp":"68768","estado":"Oaxaca","municipio":"Santiago Xiacuí","colonias":["Francisco I. Madero","Trinidad Ixtlán"],"coords":{"lat":17.27734184,"lon":-96.43039703}},"68770":{"cp":"68770","estado":"Oaxaca","municipio":"Guelatao de Juárez","colonias":["Guelatao de Juárez"],"coords":{"lat":17.31917763,"lon":-96.48991394}},"68774":{"cp":"68774","estado":"Oaxaca","municipio":"Santa Catarina Ixtepeji","colonias":["Santa Catarina Ixtepeji"],"coords":{"lat":17.26610374,"lon":-96.56307983}},"68775":{"cp":"68775","estado":"Oaxaca","municipio":"Santa Catarina Ixtepeji","colonias":["El Cerezal"],"coords":{"lat":17.24115372,"lon":-96.56404877}},"68776":{"cp":"68776","estado":"Oaxaca","municipio":"Santa Catarina Ixtepeji","colonias":["El Punto","San Pedro Nexicho"],"coords":{"lat":17.26434708,"lon":-96.58270264}},"68777":{"cp":"68777","estado":"Oaxaca","municipio":"Santa Catarina Ixtepeji","colonias":["Tierra Colorada"],"coords":{"lat":17.16637802,"lon":-96.59945679}},"68778":{"cp":"68778","estado":"Oaxaca","municipio":"San Miguel Yotao","colonias":["San Miguel Yotao"],"coords":{"lat":17.37300301,"lon":-96.33339691}},"68780":{"cp":"68780","estado":"Oaxaca","municipio":"Santa Catarina Lachatao","colonias":["Latuvi","Santa Catarina Lachatao"],"coords":{"lat":17.26831627,"lon":-96.46926117}},"68783":{"cp":"68783","estado":"Oaxaca","municipio":"Santa Catarina Lachatao","colonias":["Benito Juárez","La Nevería"],"coords":{"lat":17.12936783,"lon":-96.52321625}},"68785":{"cp":"68785","estado":"Oaxaca","municipio":"San Miguel Amatlán","colonias":["Cuajimoloyas"],"coords":{"lat":17.11940193,"lon":-96.4516983}},"68786":{"cp":"68786","estado":"Oaxaca","municipio":"San Miguel Amatlán","colonias":["San Miguel Amatlán"],"coords":{"lat":17.27030754,"lon":-96.46695709}},"68790":{"cp":"68790","estado":"Oaxaca","municipio":"Santa María Yavesía","colonias":["Santa María Yavesía"],"coords":{"lat":17.2563858,"lon":-96.43312073}},"68795":{"cp":"68795","estado":"Oaxaca","municipio":"Santiago Laxopa","colonias":["Santiago Laxopa"],"coords":{"lat":17.22702026,"lon":-96.32193756}},"68796":{"cp":"68796","estado":"Oaxaca","municipio":"Santiago Laxopa","colonias":["Santa Catarina Yahuio","San Sebastián Guiloxí"],"coords":{"lat":17.22182083,"lon":-96.29716492}}}