{"71500":{"cp":"71500","estado":"Oaxaca","municipio":"Heroica Ciudad de Ejutla de Crespo","colonias":["Vista Hermosa","Los Olivos","Chino (Del Pozo)","El Depósito","El Arroyo","Yegoseve","Los Pinos","Viva 2000","La Escondida","El Calvario","La Cruz Blanca","La Estación","La Loma","Heroica Ciudad de Ejutla de Crespo Centro","La Zoritana","Agrícola el Llano"],"coords":{"lat":16.56337547,"lon":-96.73267365}},"71502":{"cp":"71502","estado":"Oaxaca","municipio":"Heroica Ciudad de Ejutla de Crespo","colonias":["San Juan Logolava","Los Ocotes","San Matías Chilazoa","Santa Cruz Nexila","Santa Martha Chichihualtepec","Monte del Toro","La Noria de Ortiz"],"coords":{"lat":16.69432449,"lon":-96.73079681}},"71503":{"cp":"71503","estado":"Oaxaca","municipio":"Heroica Ciudad de Ejutla de Crespo","colonias":["San Juan Coatecas Bajas","El Arrogante Justo Benítez"],"coords":null},"71504":{"cp":"71504","estado":"Oaxaca","municipio":"Heroica Ciudad de Ejutla de Crespo","colonias":["La Lobera","El Saúz","La Pitiona","La Ermita","Barranca Larga","El Vergel (Puga y Colmenares)","La Escalera (San Isidro la Escalera)","San José de la Huerta","Hacienda Vieja","La Noria","La Cieneguilla"],"coords":{"lat":16.49166679,"lon":-96.73609924}},"71505":{"cp":"71505","estado":"Oaxaca","municipio":"Heroica Ciudad de Ejutla de Crespo","colonias":["San Joaquín","Nuevo Venustiano Carranza","Rinconada de San Diego"],"coords":{"lat":16.59086227,"lon":-96.75740051}},"71506":{"cp":"71506","estado":"Oaxaca","municipio":"San Martín Tilcajete","colonias":["San Martín Tilcajete"],"coords":{"lat":16.88704872,"lon":-96.68676758}},"71507":{"cp":"71507","estado":"Oaxaca","municipio":"Santo Tomás Jalieza","colonias":["Santa Cecilia Jalieza","Santo Domingo Jalieza","Santo Tomas Jalieza"],"coords":{"lat":16.84280205,"lon":-96.67034912}},"71508":{"cp":"71508","estado":"Oaxaca","municipio":"San Juan Chilateca","colonias":["San Juan Chilateca"],"coords":{"lat":16.83456612,"lon":-96.66571045}},"71510":{"cp":"71510","estado":"Oaxaca","municipio":"Ocotlán de Morelos","colonias":["El Moreno","El Taray (El Taray Dos)","El Carrizal","La Cofradía","Paraje Galga","Unión y Progreso","Ocotlán de Morelos Centro","San Jacinto Ocotlán","Santa Rosa","Ex-Hacienda Tocuela","El Bajío","Santa Cruz","Benito Juárez","Loma Grande","Lachilagua","La Tortolita","Jacarandas","Santa María Tocuela","La Luz","Santa María","Los Ocotes","La Esperanza","Los Amador","Rancho Galea","El Ciruelo","La Juquilita"],"coords":{"lat":16.78928947,"lon":-96.67006683}},"71512":{"cp":"71512","estado":"Oaxaca","municipio":"Ocotlán de Morelos","colonias":["San Cristóbal Ixcatlán","San Jacinto Chilateca","San Pedro Guegorexe"],"coords":{"lat":16.8726387,"lon":-96.67269897}},"71513":{"cp":"71513","estado":"Oaxaca","municipio":"Ocotlán de Morelos","colonias":["Praxedis de Guerrero"],"coords":null},"71514":{"cp":"71514","estado":"Oaxaca","municipio":"Ocotlán de Morelos","colonias":["San Isidro","La Soledad","Sitio de Santiago","La Chilaíta"],"coords":{"lat":16.77124023,"lon":-96.65879822}},"71515":{"cp":"71515","estado":"Oaxaca","municipio":"Ocotlán de Morelos","colonias":["Las Flores","Buenavista","Tejas de Morelos","San Felipe Apóstol"],"coords":{"lat":16.71925926,"lon":-96.79347229}},"71516":{"cp":"71516","estado":"Oaxaca","municipio":"Santa Ana Zegache","colonias":["Santa Ana Zegache"],"coords":{"lat":16.82619476,"lon":-96.72351074}},"71517":{"cp":"71517","estado":"Oaxaca","municipio":"Santa Ana Zegache","colonias":["San Jerónimo Zegache"],"coords":{"lat":16.84197807,"lon":-96.74435425}},"71518":{"cp":"71518","estado":"Oaxaca","municipio":"Santiago Apóstol","colonias":["San Sebastián Ocotlán","Santiago Apóstol"],"coords":{"lat":16.7997036,"lon":-96.70223999}},"71520":{"cp":"71520","estado":"Oaxaca","municipio":"San Antonino Castillo Velasco","colonias":["San Antonino Castillo Velasco"],"coords":{"lat":16.79388428,"lon":-96.68466949}},"71523":{"cp":"71523","estado":"Oaxaca","municipio":"Asunción Ocotlán","colonias":["Jelaro","Asunción Ocotlán"],"coords":{"lat":16.75746727,"lon":-96.71804047}},"71525":{"cp":"71525","estado":"Oaxaca","municipio":"San Pedro Mártir","colonias":["San Pedro Mártir"],"coords":{"lat":16.73960876,"lon":-96.6966629}},"71526":{"cp":"71526","estado":"Oaxaca","municipio":"San Dionisio Ocotlán","colonias":["El Llano","San Dionisio Ocotlán"],"coords":{"lat":16.75165749,"lon":-96.67887115}},"71528":{"cp":"71528","estado":"Oaxaca","municipio":"San Dionisio Ocotlán","colonias":["Guelavichigana la Labor"],"coords":{"lat":16.73956871,"lon":-96.66220093}},"71529":{"cp":"71529","estado":"Oaxaca","municipio":"Magdalena Ocotlán","colonias":["Magdalena Ocotlán"],"coords":{"lat":16.70796204,"lon":-96.70988464}},"71530":{"cp":"71530","estado":"Oaxaca","municipio":"San Miguel Tilquiápam","colonias":["San Miguel Tilquiapam"],"coords":{"lat":16.7837925,"lon":-96.58706665}},"71534":{"cp":"71534","estado":"Oaxaca","municipio":"Santa Catarina Minas","colonias":["Santa Catarina Minas"],"coords":{"lat":16.78162003,"lon":-96.62020874}},"71537":{"cp":"71537","estado":"Oaxaca","municipio":"San Baltazar Chichicápam","colonias":["San Baltazar Chichicápam"],"coords":{"lat":16.76285362,"lon":-96.48931885}},"71540":{"cp":"71540","estado":"Oaxaca","municipio":"San Pedro Apóstol","colonias":["Guadalupe","San Pedro Apóstol"],"coords":{"lat":16.73682594,"lon":-96.72975159}},"71543":{"cp":"71543","estado":"Oaxaca","municipio":"Santa Lucía Ocotlán","colonias":["Los Sarmiento","Rompecapa","Tierra Negra (Pozo Tierra Negra)","Santa Lucía Ocotlán"],"coords":{"lat":16.74233055,"lon":-96.67962646}},"71545":{"cp":"71545","estado":"Oaxaca","municipio":"San Jerónimo Taviche","colonias":["San Jerónimo Taviche"],"coords":{"lat":16.7097187,"lon":-96.59535217}},"71548":{"cp":"71548","estado":"Oaxaca","municipio":"San Andrés Zabache","colonias":["San Andrés Zabache"],"coords":{"lat":16.6074276,"lon":-96.86277771}},"71550":{"cp":"71550","estado":"Oaxaca","municipio":"San José del Progreso","colonias":["Los Díaz","La Alianza","San José la Garzona","San José del Progreso"],"coords":{"lat":16.68532944,"lon":-96.68487549}},"71553":{"cp":"71553","estado":"Oaxaca","municipio":"San José del Progreso","colonias":["Maguey Largo","Los Patiño","El Cuajilote","El Porvenir","El Jagüey","Lachilana","Paraje el Mogote","Los Vásquez"],"coords":{"lat":16.71044159,"lon":-96.69110107}},"71554":{"cp":"71554","estado":"Oaxaca","municipio":"Yaxe","colonias":["Yaxe"],"coords":{"lat":16.7308979,"lon":-96.46698761}},"71557":{"cp":"71557","estado":"Oaxaca","municipio":"San Pedro Taviche","colonias":["San Pedro Taviche"],"coords":{"lat":16.63736725,"lon":-96.53932953}},"71560":{"cp":"71560","estado":"Oaxaca","municipio":"Heroico San Martín de los Cansecos","colonias":["San Martín de los Cansecos"],"coords":{"lat":16.65881729,"lon":-96.72579193}},"71562":{"cp":"71562","estado":"Oaxaca","municipio":"San Martín Lachilá","colonias":["San Martín Lachilá"],"coords":{"lat":16.61003113,"lon":-96.85083771}},"71565":{"cp":"71565","estado":"Oaxaca","municipio":"La Pe","colonias":["La Pe"],"coords":{"lat":16.63335228,"lon":-96.79555511}},"71566":{"cp":"71566","estado":"Oaxaca","municipio":"La Pe","colonias":["La Guadalupe"],"coords":{"lat":16.60247803,"lon":-96.78652191}},"71567":{"cp":"71567","estado":"Oaxaca","municipio":"La Compañía","colonias":["Agua Blanca","Agua del Espino","La Compañía"],"coords":{"lat":16.58528328,"lon":-96.82315826}},"71568":{"cp":"71568","estado":"Oaxaca","municipio":"La Compañía","colonias":["El Vado","La Y"],"coords":{"lat":16.60127258,"lon":-96.89164734}},"71569":{"cp":"71569","estado":"Oaxaca","municipio":"La Compañía","colonias":["La Labor","Río de Ejutla"],"coords":{"lat":16.54378128,"lon":-96.79761505}},"71570":{"cp":"71570","estado":"Oaxaca","municipio":"Coatecas Altas","colonias":["Coatecas Altas"],"coords":{"lat":16.53284073,"lon":-96.67069244}},"71573":{"cp":"71573","estado":"Oaxaca","municipio":"Coatecas Altas","colonias":["El Portillo","Chepeginio","Tepehuaje"],"coords":{"lat":16.53426361,"lon":-96.63943481}},"71574":{"cp":"71574","estado":"Oaxaca","municipio":"Coatecas Altas","colonias":["Pochotlillo","Poblete"],"coords":{"lat":16.47780228,"lon":-96.56686401}},"71575":{"cp":"71575","estado":"Oaxaca","municipio":"San Juan Lachigalla","colonias":["San Andrés Niño","San Juan Lachigalla"],"coords":{"lat":16.56516647,"lon":-96.56555939}},"71576":{"cp":"71576","estado":"Oaxaca","municipio":"San Juan Lachigalla","colonias":["Santiago la Libertad","Progreso"],"coords":{"lat":16.58846664,"lon":-96.50209808}},"71577":{"cp":"71577","estado":"Oaxaca","municipio":"San Juan Lachigalla","colonias":["Xaguía"],"coords":{"lat":16.52064323,"lon":-96.5141983}},"71578":{"cp":"71578","estado":"Oaxaca","municipio":"San Juan Lachigalla","colonias":["El Rincón"],"coords":{"lat":16.52388,"lon":-96.56085205}},"71580":{"cp":"71580","estado":"Oaxaca","municipio":"San Agustín Amatengo","colonias":["San Agustín Amatengo"],"coords":{"lat":16.53941345,"lon":-96.79533386}},"71586":{"cp":"71586","estado":"Oaxaca","municipio":"Taniche","colonias":["Taniche"],"coords":{"lat":16.57522202,"lon":-96.74880219}},"71588":{"cp":"71588","estado":"Oaxaca","municipio":"San Miguel Ejutla","colonias":["San Miguel Ejutla"],"coords":{"lat":16.58170319,"lon":-96.73551941}},"71590":{"cp":"71590","estado":"Oaxaca","municipio":"Yogana","colonias":["Yogana"],"coords":{"lat":16.46254349,"lon":-96.78934479}},"71595":{"cp":"71595","estado":"Oaxaca","municipio":"San Vicente Coatlán","colonias":["San Vicente Coatlán"],"coords":{"lat":16.38568878,"lon":-96.83789063}},"71597":{"cp":"71597","estado":"Oaxaca","municipio":"San Vicente Coatlán","colonias":["San Isidro la Cañada"],"coords":{"lat":16.35699081,"lon":-96.82619476}}}